[{"id":"1","name":"store1","lat":"40.2821993","lng":"-3.8080201","address":"5 avenue","city":"Fuenlabrada","zone_id":"1","country_id":"1","region_id":"1","region_name":"Madrid","country_name":"Espa\u00f1a","zone_name":"Europa","phone":"25-255-255-255","email":"store1@email.com"},{"id":"2","name":"store2","lat":"40.4082353","lng":"-3.6554394","address":"5 avenue","city":"Madrid","zone_id":"1","country_id":"1","region_id":"1","region_name":"Madrid","country_name":"Espa\u00f1a","zone_name":"Europa","phone":"25-255-255-255","email":"store1@email.com"},{"id":"3","name":"store3","lat":"41.9010072","lng":"12.499715","address":"5 avenue","city":"Rome","zone_id":"1","country_id":"2","region_id":"","region_name":null,"country_name":"Italia","zone_name":"Europa","phone":"25-255-255-255","email":"store1@email.com"},{"id":"4","name":"store4","lat":"29.4338016","lng":"-94.9663202","address":"5 avenue","city":"Texas","zone_id":"2","country_id":"5","region_id":"","region_name":null,"country_name":"Texas","zone_name":"North America","phone":"25-255-255-255","email":"store1@email.com"},{"id":"7","name":"store7","lat":"22.2809125","lng":"114.1533119","address":"5 avenue","city":"California","zone_id":"2","country_id":"7","region_id":"","region_name":null,"country_name":"California","zone_name":"North America","phone":"25-255-255-255","email":"store1@email.com"},{"id":"8","name":"store8","lat":"28.4813018","lng":"-81.4387899","address":"5 avenue","city":"Florida","zone_id":"2","country_id":"6","region_id":"","region_name":null,"country_name":"Florida","zone_name":"North America","phone":"25-255-255-255","email":"store1@email.com"},{"id":"9","name":"store9","lat":"52.5069704","lng":"13.2846502","address":"5 avenue","city":"Berlin","zone_id":"1","country_id":"3","region_id":"","region_name":null,"country_name":"Alemania","zone_name":"Europa","phone":"25-255-255-255","email":"store1@email.com"}]